[
	{
		"city": "Астрахань",
		"adress": "Астрахань, ул. Победы, 41",
		"lat": "46.3519863",
		"lng": "48.05599730000001",
		"phone": ["8 (851) 299-47-72"],
		"email": "rostov@ts-panel.ru"
	},
	{
		"city": "Брянск",
		"adress": "Брянск, ул. Дуки, 69",
		"lat": "53.2665618",
		"lng": "34.3555041",
		"phone": ["8 (483) 232-10-79"],
		"email": "info@ts-panel.ru"
	},
	{
		"city": "Владимир",
		"adress": "Владимир, ул. Юбилейная, д. 11-б",
		"lat": "56.15719530000001",
		"lng": "40.454562",
		"phone": ["8 (4922) 49-44-89", "8 (915) 764-17-27"],
		"email": "vladimir@ts-panel.ru"
	},
	{
		"city": "Волгоград",
		"adress": "Волгоград, ул. Баррикадная, 1Б",
		"lat": "48.6898719",
		"lng": "44.4960216",
		"phone": ["8 (844) 220-10-24"],
		"email": "guv@ts-panel.ru"
	},
	{
		"city": "Вологда",
		"adress": "Вологда, ул. Мальцева, 52",
		"lat": "59.2146274",
		"lng": "39.8728847",
		"phone": ["8 (812) 334-11-67"],
		"email": "office.spb@ts-panel.ru"
	},
	{
		"city": "Воронеж",
		"adress": "Воронеж, ул. Степана Разина, 38",
		"lat": "51.6746344",
		"lng": "39.2158639",
		"phone": ["8 (473) 300-31-83"],
		"email": "vrn@ts-panel.ru"
	},
	{
		"city": "Екатеринбург",
		"adress": "Екатеринбург, ул. Московская, 54",
		"lat": "56.82494999999999",
		"lng": "60.5852534",
		"phone": ["8 (343) 364-55-21"],
		"email": "ural@ts-panel.ru"
	},
	{
		"city": "Иваново",
		"adress": "Иваново, Посадский переулок, 4",
		"lat": "57.0083612",
		"lng": "40.9685445",
		"phone": ["8 493 277 31 18"],
		"email": "ivanovo@ts-panel.ru"
	},
	{
		"city": "Ижевск",
		"adress": "Ижевск, Молодёжная, 111",
		"lat": "56.857703",
		"lng": "53.2948816",
		"phone": ["8 (341) 233-02-89"],
		"email": "izhevsk@ts-panel.ru"
	},
	{
		"city": "Йошкар-Ола",
		"adress": "Йошкар-Ола, ул. Эшкинина, 10Д",
		"lat": "56.6298079",
		"lng": "47.9059721",
		"phone": ["8 (836) 234-74-49"],
		"email": "info@ts-panel.ru"
	},
	{
		"city": "Казань",
		"adress": "Казань, ул. Владимира Кулагина, д. 10",
		"lat": "55.7424683",
		"lng": "49.1063992",
		"phone": ["8 (843) 212-24-04"],
		"email": "gt@ts-panel.ru"
	},
	{
		"city": "Калининград",
		"adress": "Калининград, Московский пр., 40",
		"lat": "54.7094033",
		"lng": "20.5025367",
		"phone": ["8 (401) 227-88-71"],
		"email": "office.spb@ts-panel.ru"
	},
	{
		"city": "Калуга",
		"adress": "Калуга, ул. Суворова, 121",
		"lat": "54.5164863",
		"lng": "36.2593418",
		"phone": ["8 (484) 220-71-87"],
		"email": "info@ts-panel.ru"
	},
	{
		"city": "Киров",
		"adress": "Киров, ул. Маршала Говорова, д. 49",
		"lat": "58.6030012",
		"lng": "49.6679437",
		"phone": ["8 (833) 220-46-39"],
		"email": "info@ts-panel.ru"
	},
	{
		"city": "Краснодар",
		"adress": "Краснодар, ул. Шевченко, д. 152, корп. 4",
		"lat": "45.0244094",
		"lng": "39.0097659",
		"phone": ["8 (861) 202-54-74", "8 (800) 333-12-65"],
		"email": "rostov@ts-panel.ru"
	},
	{
		"city": "Красноярск",
		"adress": "Красноярск, ул. Партизана Железняка, 35 А",
		"lat": "56.0353905",
		"lng": "92.930544",
		"phone": ["8 (391) 986-77-61"],
		"email": "info@ts-panel.ru"
	},
	{
		"city": "Курск",
		"adress": "Курск, ул. Радищева, 5",
		"lat": "51.7298194",
		"lng": "36.1912045",
		"phone": ["8 (471) 225-03-62"],
		"email": "kursk@ts-panel.ru"
	},
	{
		"city": "Липецк",
		"adress": "Липецк, просп. Победы, 29",
		"lat": "52.59673369999999",
		"lng": "39.567174",
		"phone": ["8 (474) 256-31-45"],
		"email": "info@ts-panel.ru"
	},
	{
		"city": "Москва",
		"adress": "Москва, ул. Кировоградская, 23А, корп. 1",
		"lat": "55.600387",
		"lng": "37.6006863",
		"phone": ["8 (495) 215-23-67", "8 (800) 555-93-32"],
		"email": "info@ts-panel.ru"
	},
	{
		"city": "Москва",
		"adress": "Москва, ул. Марксистская, д. 34, корпус 8  ",
		"lat": "55.73506459999999",
		"lng": "37.6653034",
		"phone": ["8 (800) 555-93-32"],
		"email": "info@ts-panel.ru"
	},
	{
		"city": "Набережные Челны",
		"adress": "Набережные Челны, просп. Мусы Джалиля 58",
		"lat": "55.6873694",
		"lng": "52.3057238",
		"phone": ["8 (855) 291-08-47"],
		"email": "samara@ts-panel.ru"
	},
	{
		"city": "Нижний Новгород",
		"adress": "Нижний Новгород, ул. Нестерова, 11/26",
		"lat": "56.3252371",
		"lng": "44.0151169",
		"phone": ["8 (831) 262-14-21"],
		"email": "info@ts-panel.ru"
	},
	{
		"city": "Новосибирск",
		"adress": "Новосибирск, ул. Кирова, 48",
		"lat": "55.0176125",
		"lng": "82.9403255",
		"phone": ["8 (383) 207-56-62"],
		"email": "info@ts-panel.ru"
	},
	{
		"city": "Оренбург",
		"adress": "Оренбург, ул. 8 Марта, 15",
		"lat": "51.7606433",
		"lng": "55.10849649999999",
		"phone": ["8 (353) 248-71-37"],
		"email": "info@ts-panel.ru"
	},
	{
		"city": "Пенза",
		"adress": "Пенза, ул. Революционная, 71",
		"lat": "53.1928586",
		"lng": "45.0067552",
		"phone": ["8 (841) 223-66-91"],
		"email": "penza@ts-panel.ru"
	},
	{
		"city": "Пермь",
		"adress": "Пермь, бульвар Гагарина, 65А",
		"lat": "58.006275",
		"lng": "56.286715",
		"phone": ["8 (342) 248-04-90"],
		"email": "ural@ts-panel.ru"
	},
	{
		"city": "Подольск",
		"adress": "Подольск, ул. 50 лет ВЛКСМ, 18а",
		"lat": "55.4264187",
		"lng": "37.5377169",
		"phone": ["8 (495) 374-67-32"],
		"email": "podolsk@ts-panel.ru"
	},
	{
		"city": "Ростов-на-Дону",
		"adress": "Ростов-на-Дону, ул. Металлургическая, д. 102/2, литер Б, этаж 3, офис 303",
		"lat": "47.2548567",
		"lng": "39.7710565",
		"phone": ["8 (863) 303-21-17", "8 (800) 333-12-65"],
		"email": "rostov@ts-panel.ru"
	},
	{
		"city": "Рязань",
		"adress": "Рязань, ул. Ситниковская, 69А, стр. 2",
		"lat": "54.6124219",
		"lng": "39.6452674",
		"phone": ["8 (382) 299-02-18"],
		"email": "ryazan@ts-panel.ru"
	},
	{
		"city": "Самара",
		"adress": "Самара, ул. Олимпийская, 59",
		"lat": "53.2410642",
		"lng": "50.2899458",
		"phone": ["8 (846) 212-98-91"],
		"email": "samara@ts-panel.ru"
	},
	{
		"city": "Санкт-Петербург",
		"adress": "Санкт-Петербург,  ул. Ефимова, 4А, БЦ МИР",
		"lat": "59.9253557",
		"lng": "30.3209616",
		"phone": ["8 (812) 334-11-67"],
		"email": "office.spb@ts-panel.ru"
	},
	{
		"city": "Саранск",
		"adress": "Саранск, ул. Строительная, д 2",
		"lat": "54.2043042",
		"lng": "45.1779558",
		"phone": ["8 (834) 222-96-91"],
		"email": "samara@ts-panel.ru"
	},
	{
		"city": "Саратов",
		"adress": "Саратов, ул. Максима Горького, 30А",
		"lat": "51.5304234",
		"lng": "46.02978479999999",
		"phone": ["8 (845) 239-78-47"],
		"email": "samara@ts-panel.ru"
	},
	{
		"city": "Севастополь",
		"adress": "Севастополь, просп. Октябрьской Революции, 43В",
		"lat": "44.5920678",
		"lng": "33.4583916",
		"phone": ["8 (869) 277-70-58", "8 (800) 333-12-65"],
		"email": "rostov@ts-panel.ru"
	},
	{
		"city": "Симферополь",
		"adress": "Симферополь, ул. Киевская, 41, БЦ «ФАБРИКА»",
		"lat": "44.9531472",
		"lng": "34.1209695",
		"phone": ["8 (365) 277-70-85", "8 (800) 333-12-65"],
		"email": "rostov@ts-panel.ru"
	},
	{
		"city": "Сочи",
		"adress": "Сочи, ул. Виноградная, 20А",
		"lat": "43.6039784",
		"lng": "39.7191121",
		"phone": ["8 (862) 555-25-68"],
		"email": "info@ts-panel.ru"
	},
	{
		"city": "Ставрополь",
		"adress": "Ставрополь, ул. Ленина, 415Д",
		"lat": "45.03723979999999",
		"lng": "41.9221712",
		"phone": ["8 (865) 220-57-63"],
		"email": "stavropol@ts-panel.ru"
	},
	{
		"city": "Тверь",
		"adress": "​Тверь, Тверской проспект, 2",
		"lat": "56.8534012",
		"lng": "35.90788810000001",
		"phone": ["8 (482) 273-42-47"],
		"email": "info@ts-panel.ru"
	},
	{
		"city": "Тольятти",
		"adress": "Тольятти, ул. Маршала Жукова, 35",
		"lat": "53.504471",
		"lng": "49.300996",
		"phone": ["8 (848) 265-01-56"],
		"email": "samara@ts-panel.ru"
	},
	{
		"city": "Томск",
		"adress": "Томск, площадь Батенькова, 2",
		"lat": "56.4848954",
		"lng": "84.9510753",
		"phone": ["8 (382) 299-02-18"],
		"email": "tomsk@ts-panel.ru"
	},
	{
		"city": "Тула",
		"adress": "г. Тула, Красноармейский проспект, д. 1",
		"lat": "54.1956765",
		"lng": "37.6103175",
		"phone": ["8 (4872) 52-50-55"],
		"email": "info@ts-panel.ru"
	},
	{
		"city": "Тюмень",
		"adress": "Тюмень,ул. Советская, 51, корп. 1",
		"lat": "57.156236",
		"lng": "65.545886",
		"phone": ["8 (345) 257-54-27"],
		"email": "info@ts-panel.ru"
	},
	{
		"city": "Ульяновск",
		"adress": "Ульяновск, проспект Ленинского Комсомола, д. 38. БЦ «Петровка»",
		"lat": "54.3744348",
		"lng": "48.5785372",
		"phone": ["8 (8422) 50-60-65"],
		"email": "gt@ts-panel.ru"
	},
	{
		"city": "Уфа",
		"adress": "Уфа, ул. 50 лет СССР, 48/1",
		"lat": "54.7452778",
		"lng": "56.0253131",
		"phone": ["8 (347) 200-09-47"],
		"email": "samara@ts-panel.ru"
	},
	{
		"city": "Чебоксары",
		"adress": "Чебоксары, ул. Юрия Гагарина, 55",
		"lat": "56.1383072",
		"lng": "47.2714903",
		"phone": ["8 (835) 220-24-29"],
		"email": "cheboksari@ts-panel.ru"
	},
	{
		"city": "Челябинск",
		"adress": "Челябинск, ул. Кирова, 159",
		"lat": "55.16472150000001",
		"lng": "61.401165",
		"phone": ["8 (351) 242-01-59"],
		"email": "chelyabinsk@ts-panel.ru"
	},
	{
		"city": "Ярославль",
		"adress": "Ярославль, ул. Угличская, 39",
		"lat": "57.63255299999999",
		"lng": "39.82824",
		"phone": ["8 (485) 260-92-69"],
		"email": "vladimir@ts-panel.ru"
	},
	{
		"city": "Минск (Беларусь)",
		"adress": "Минск, Дзержинского просп. 69/2",
		"lat": "53.865021",
		"lng": "27.4881109",
		"phone": ["8 (820) 0321-01-24"],
		"email": "belarus@ts-panel.ru"
	},
	{
		"city": "Нур-Султан (Казахстан)",
		"adress": "Нур-Султан, ул. Динмухамеда Кунаева, 33",
		"lat": "51.1308296",
		"lng": "71.434609",
		"phone": ["8 (717) 272-70-23"],
		"email": "kz@ts-panel.kz"
	},
	{
		"city": "Нижний Тагил",
		"adress": "Нижний Тагил, ул. Красноармейская, 42а",
		"lat": "57.9087194",
		"lng": "59.9603107",
		"phone": ["8 (343) 521-70-05"],
		"email": "info@ts-panel.ru"
	},
	{
		"city": "Смоленск",
		"adress": "Смоленск, ул. Ломоносова, 13",
		"lat": "54.7730605",
		"lng": "32.0812382",
		"phone": ["8 (481) 251-57-60"],
		"email": "info@ts-panel.ru"
	},
	{
		"city": "Орёл",
		"adress": "Орёл, ул. Ломоносова, 6",
		"lat": "52.98207000000001",
		"lng": "36.068287",
		"phone": ["8 (486) 230-34-12"],
		"email": "info@ts-panel.ru"
	},
	{
		"city": "Тамбов",
		"adress": "Тамбов, ул. Интернациональная, 16",
		"lat": "52.72046",
		"lng": "41.4545869",
		"phone": ["8 (475) 250-37-60"],
		"email": "info@ts-panel.ru"
	},
	{
		"city": "Архангельск",
		"adress": "Архангельск, ТДЦ Пирамида, Троицкий проспект, 67",
		"lat": "64.5447255",
		"lng": "40.5164488",
		"phone": ["8 (818) 245-78-90"],
		"email": "office.spb@ts-panel.ru"
	},
	{
		"city": "Омск",
		"adress": "Омск, ул. Гагарина, 14",
		"lat": "54.9880203",
		"lng": "73.3773599",
		"phone": ["8 (381) 221-83-29"],
		"email": "info@ts-panel.ru"
	},
	{
		"city": "Иркутск",
		"adress": "Иркурск, БЦ Байкал, ул. Байкальская, 279",
		"lat": "52.25742589999999",
		"lng": "104.3533078",
		"phone": ["8 (395) 248-12-46"],
		"email": "info@ts-panel.ru"
	},
	{
		"city": "Хабаровск",
		"adress": "Хабаровск, ул. Краснореченская, 139",
		"lat": "48.4191849",
		"lng": "135.1078117",
		"phone": ["8 (421) 278-83-97"],
		"email": "info@ts-panel.ru"
	},
	{
		"city": "Барнаул",
		"adress": "Барнаул, БЦ Идеал, Красноармейский проспект, 47",
		"lat": "53.334788",
		"lng": "83.777029",
		"phone": ["8 (385) 259-03-81"],
		"email": "info@ts-panel.ru"
	},
	{
		"city": "Владивосток",
		"adress": "Владивосток, БЦ Fresh Plaza, Океанский проспект, 17",
		"lat": "43.11952309999999",
		"lng": "131.8866138",
		"phone": ["8 (423) 202-50-24"],
		"email": "info@ts-panel.ru"
	},
	{
		"city": "Махачкала",
		"adress": "Махачкала, ТОЦ GRAND PLAZA, ул. Дзержинского, 17Б",
		"lat": "42.9795841",
		"lng": "47.4987673",
		"phone": ["8 (872) 252-22-81"],
		"email": "info@ts-panel.ru"
	},
	{
		"city": "Кемерово",
		"adress": "Иркутск, Офисно-деловой центр БЕРН, ул. Карболитовская, 16а",
		"lat": "52.2854834",
		"lng": "104.2890222",
		"phone": ["8 (384) 221-54-27"],
		"email": "info@ts-panel.ru"
	},
	{
		"city": "Чита",
		"adress": "Чита, ул. Красноярская, 24А, БЦ Омега",
		"lat": "52.0270563",
		"lng": "113.5191814",
		"phone": ["8 (302) 238-30-87"],
		"email": "info@ts-panel.ru"
	},
	{
		"city": "Волжский",
		"adress": "Бизнес-центр Волжский ул. имени Ф.Г. Логинова, 23В, Волжский",
		"lat": "48.8077853",
		"lng": "44.7312191",
		"phone": ["8 (844) 321-39-59"],
		"email": "rostov@ts-panel.ru"
	},
	{
		"city": "Череповец",
		"adress": "Череповец, БЦ Наутилус, Московский просп., 49",
		"lat": "59.12361569999999",
		"lng": "37.9100337",
		"phone": ["8 (812) 334-11-67"],
		"email": "rostov@ts-panel.ru"
	},
	{
		"city": "Владикавказ",
		"adress": "Владикавказ, БЦ Карусель, ул. Цоколаева, 5",
		"lat": "43.0426092",
		"lng": "44.6358251",
		"phone": ["8 (867) 228-96-76"],
		"email": "rostov@ts-panel.ru"
	},
	{
		"city": "Грозный",
		"adress": "Грозный, просп. Ахмата Кадырова, 3/25",
		"lat": "43.31877009999999",
		"lng": "45.68652429999999",
		"phone": ["8 (871) 277-45-29"],
		"email": "rostov@ts-panel.ru"
	},
	{
		"city": "Мурманск",
		"adress": "Мурманск, Бизнес-центр Новатэк-Мурманск, ул. Сполохи, 4А",
		"lat": "68.96290239999999",
		"lng": "33.0900198",
		"phone": ["8 (812) 334-11-67"],
		"email": "office.spb@ts-panel.ru"
	},
	{
		"city": "Новороссийск",
		"adress": "Новороссийск, ул. Конституции, 2",
		"lat": "44.7189604",
		"lng": "37.7686254",
		"phone": ["8 (861) 730-84-90"],
		"email": "info@ts-panel.ru"
	},
	{
		"city": "Нижнекамск",
		"adress": "Нижнекамск, просп. Строителей, 20",
		"lat": "55.6319581",
		"lng": "51.8145556",
		"phone": ["8 (800) 555-93-32"],
		"email": "info@ts-panel.ru"
	},
	{
		"city": "Нальчик",
		"adress": "​Нальчик, ул. Пушкина, 35, БЦ Start",
		"lat": "43.4813328",
		"lng": "43.6047142",
		"phone": ["8 (800) 555-93-32"],
		"email": "info@ts-panel.ru"
	},
	{
		"city": "Великий Новгород",
		"adress": "Великий Новгород, ул. Ломоносова, 9",
		"lat": "58.54075479999999",
		"lng": "31.2454344",
		"phone": ["8 (812) 334-11-67"],
		"email": "info@ts-panel.ru"
	},
	{
		"city": "Псков",
		"adress": "Псков, БЦ Новая Слобода, ул. Максима Горького, 6а",
		"lat": "57.820726",
		"lng": "28.3208559",
		"phone": ["8 (812) 334-11-67"],
		"email": "info@ts-panel.ru"
	},
	{
		"city": "Гатчина",
		"adress": "Гатчина, БЦ Атриум, ул. Хохлова, 37",
		"lat": "59.575153",
		"lng": "30.125246",
		"phone": ["8 (812) 334-11-67"],
		"email": "office.spb@ts-panel.ru"
	},
	{
		"city": "Колпино",
		"adress": "Колпино, БЦ Северина, ул. Финляндская, 24Б",
		"lat": "59.752754",
		"lng": "30.57983299999999",
		"phone": ["8 (812) 334-11-67"],
		"email": "office.spb@ts-panel.ru"
	},
	{
		"city": "Кингисепп",
		"adress": "Кингисепп, ул. Воровского, 18А",
		"lat": "59.3750903",
		"lng": "28.61322",
		"phone": ["8 (812) 334-11-67"],
		"email": "office.spb@ts-panel.ru"
	},
	{
		"city": "Темрюк",
		"adress": "Темрюк, ул. Герцена, 48А",
		"lat": "45.2764652",
		"lng": "37.3710403",
		"phone": ["8 (800) 555-93-32"],
		"email": "info@ts-panel.ru"
	}
]